[
    {
        "name": "Barbican",
        "coordinates": [51.5203, -0.0937],
        "address": "Silk Street, London EC2Y 8DS",
        "category": "Arts Centre",
        "entryPrice": 0,
        "openHours": [
            [10, 20],
            [10, 20],
            [10, 20],
            [10, 20],
            [10, 20],
            [10, 20],
            [10, 20]
        ]
    },
    {
        "name": "British Museum",
        "coordinates": [51.5194, -0.1270],
        "address": "Great Russell Street, London WC1B 3DG",
        "category": "Museum",
        "entryPrice": 0,
        "openHours": [
            [10, 17],
            [10, 17],
            [10, 17],
            [10, 17],
            [10, 17],
            [10, 20.5],
            [10, 17]
        ]
    },
    {
        "name": "Courtauld Gallery",
        "coordinates": [51.51165886516919, -0.11774356481111975],
        "address": "Somerset House, Strand, London WC2R 0RN",
        "category": "Gallery",
        "entryPrice": 12,
        "openHours": [
            [10, 18],
            [10, 18],
            [10, 18],
            [10, 18],
            [10, 18],
            [10, 18],
            [10, 18]
        ]
    },
    {
        "name": "Globe",
        "coordinates": [51.5081, -0.0972],
        "address": "21 New Globe Walk, Bankside, London SE1 9DT",
        "category": "Theatre",
        "entryPrice": 0,
        "openHours": [
            [10, 17],
            [10, 17],
            [10, 17],
            [10, 17],
            [10, 17],
            [10, 17],
            [10, 17]
        ]
    },
    {
        "name": "Japan House",
        "coordinates": [51.5001, -0.1939],
        "address": "101-111 Kensington High Street, London W8 5SA",
        "category": "Gallery",
        "entryPrice": 0,
        "openHours": [
            [12, 18],
            [10, 20],
            [10, 20],
            [10, 20],
            [10, 20],
            [10, 20],
            [10, 20]
        ]
    },
    {
        "name": "LSE",
        "coordinates": [51.5145, -0.1167],
        "address": "Houghton Street, London WC2A 2AE",
        "category": "Talks",
        "entryPrice": 0,
        "openHours": [
            [10, 17],
            [10, 17],
            [10, 17],
            [10, 17],
            [10, 17],
            [10, 17],
            [10, 17]
        ]
    },
    {
        "name": "National Gallery",
        "coordinates": [51.5089, -0.1283],
        "address": "Trafalgar Square, London WC2N 5DN",
        "category": "Gallery",
        "entryPrice": 0,
        "openHours": [
            [10, 18],
            [10, 18],
            [10, 18],
            [10, 18],
            [10, 18],
            [10, 21],
            [10, 18]
        ]
    },
    {
        "name": "National Portrait Gallery",
        "coordinates": [51.5092, -0.1281],
        "address": "St Martin's Place, London WC2H 0HE",
        "category": "Gallery",
        "entryPrice": 0,
        "openHours": [
            [10.5, 18],
            [10.5, 18],
            [10.5, 18],
            [10.5, 18],
            [10.5, 18],
            [10.5, 21],
            [10.5, 21]
        ]
    },
    {
        "name": "Natural History Museum",
        "coordinates": [51.4967, -0.1764],
        "address": "Cromwell Road, London SW7 5BD",
        "category": "Museum",
        "entryPrice": 0,
        "openHours": [
            [10, 17.83],
            [10, 17.83],
            [10, 17.83],
            [10, 17.83],
            [10, 17.83],
            [10, 17.83],
            [10, 17.83]
        ]
    },
    {
        "name": "Science Museum",
        "coordinates": [51.4978, -0.1745],
        "address": "Exhibition Road, South Kensington, London SW7 2DD",
        "category": "Museum",
        "entryPrice": 0,
        "openHours": [
            [10, 18],
            [10, 18],
            [10, 18],
            [10, 18],
            [10, 18],
            [10, 18],
            [10, 18]
        ]
    },
    {
        "name": "Tate Britain",
        "coordinates": [51.4910, -0.1278],
        "address": "Millbank, London SW1P 4RG",
        "category": "Gallery",
        "entryPrice": 0,
        "openHours": [
            [10, 18],
            [10, 18],
            [10, 18],
            [10, 18],
            [10, 18],
            [10, 18],
            [10, 18]
        ]
    },
    {
        "name": "Tate Modern",
        "coordinates": [51.5076, -0.0994],
        "address": "Bankside, London SE1 9TG",
        "category": "Gallery",
        "entryPrice": 0,
        "openHours": [
            [10, 18],
            [10, 18],
            [10, 18],
            [10, 18],
            [10, 18],
            [10, 21],
            [10, 21]
        ]
    },
    {
        "name": "Design Museum",
        "coordinates": [51.4998, -0.2014],
        "address": "224-238 Kensington High Street, London W8 6AG",
        "category": "Museum",
        "entryPrice": 0,
        "openHours": [
            [10, 18],
            [10, 18],
            [10, 18],
            [10, 18],
            [10, 18],
            [10, 18],
            [10, 18]
        ]
    },
    {
        "name": "Imperial War Museum",
        "coordinates": [51.4957, -0.1090],
        "address": "Lambeth Road, London SE1 6HZ",
        "category": "Museum",
        "entryPrice": 0,
        "openHours": [
            [10, 18],
            [10, 18],
            [10, 18],
            [10, 18],
            [10, 18],
            [10, 18],
            [10, 18]
        ]
    },
    {
        "name": "King's Gallery",
        "coordinates": [51.5014, -0.1419],
        "address": "Buckingham Palace, London SW1A 1AA",
        "category": "Gallery",
        "entryPrice": 22,
        "openHours": [
            [10, 17.5],
            [10, 17.5],
            [10, 17.5],
            [10, 17.5],
            [10, 17.5],
            [10, 17.5],
            [10, 17.5]
        ]
    },
    {
        "name": "Mall Galleries",
        "coordinates": [51.5067, -0.1300],
        "address": "The Mall, London SW1Y 5BD",
        "category": "Gallery",
        "entryPrice": 0,
        "openHours": [
            [10, 17],
            [10, 17],
            [10, 17],
            [10, 17],
            [10, 17],
            [10, 17],
            [10, 17]
        ]
    },
    {
        "name": "Royal Academy",
        "coordinates": [51.5092, -0.1397],
        "address": "Burlington House, Piccadilly, London W1J 0BD",
        "category": "Gallery",
        "entryPrice": 0,
        "openHours": [
            [10, 18],
            [0, 0],
            [10, 18],
            [10, 18],
            [10, 18],
            [10, 21],
            [10, 21]
        ]
    },
    {
        "name": "Serpentine Galleries",
        "coordinates": [51.5047, -0.1751],
        "address": "Kensington Gardens, London W2 3XA",
        "category": "Gallery",
        "entryPrice": 0,
        "openHours": [
            [10, 19],
            [12, 18],
            [10, 18],
            [10, 18],
            [10, 18],
            [10, 18],
            [10, 19]
        ]
    },
    {
        "name": "Southbank Centre",
        "coordinates": [51.50578715785221, -0.11674763180281776],
        "address": "Belvedere Road, London SE1 8XX",
        "category": "Arts Centre",
        "entryPrice": 0,
        "openHours": [
            [11, 19],
            [0, 0],
            [11, 19],
            [11, 19],
            [11, 21],
            [11, 19],
            [11, 19]
        ]
    },
    {
        "name": "Wallace Collection",
        "coordinates": [51.5156, -0.1529],
        "address": "Hertford House, Manchester Square, London W1U 3BN",
        "category": "Museum",
        "entryPrice": 0,
        "openHours": [
            [10, 17],
            [10, 17],
            [10, 17],
            [10, 17],
            [10, 17],
            [10, 17],
            [10, 17]
        ]
    },
    {
        "name": "Whitechapel Gallery",
        "coordinates": [51.5154, -0.0715],
        "address": "77-82 Whitechapel High Street, London E1 7QX",
        "category": "Gallery",
        "entryPrice": 0,
        "openHours": [
            [11, 18],
            [0, 0],
            [11, 18],
            [11, 18],
            [11, 21],
            [11, 18],
            [11, 18]
        ]
    },
    {
        "name": "Cartoon Museum",
        "coordinates": [51.5177, -0.1406],
        "address": "63 Wells Street, London W1A 3AE",
        "category": "Museum",
        "entryPrice": 8,
        "openHours": [
            [10.5, 17.5],
            [0, 0],
            [10.5, 17.5],
            [10.5, 17.5],
            [10.5, 17.5],
            [10.5, 17.5],
            [10.5, 17.5]
        ]
    },
    {
        "name": "Dulwich Picture Gallery",
        "coordinates": [51.4488, -0.0841],
        "address": "Gallery Road, London SE21 7AD",
        "category": "Gallery",
        "entryPrice": 16,
        "openHours": [
            [10, 18],
            [0, 0],
            [10, 17],
            [10, 17],
            [10, 17],
            [10, 17],
            [10, 18]
        ]
    },
    {
        "name": "Estorick Collection",
        "coordinates": [51.5442, -0.0954],
        "address": "39a Canonbury Square, London N1 2AN",
        "category": "Gallery",
        "entryPrice": 8,
        "openHours": [
            [12, 17],
            [0, 0],
            [0, 0],
            [11, 18],
            [11, 18],
            [11, 18],
            [11, 18]
        ]
    },
    {
        "name": "Foundling Museum",
        "coordinates": [51.5233, -0.1193],
        "address": "40 Brunswick Square, London WC1N 1AZ",
        "category": "Museum",
        "entryPrice": 12.5,
        "openHours": [
            [10, 17],
            [0, 0],
            [10, 17],
            [10, 17],
            [10, 17],
            [10, 17],
            [10, 17]
        ]
    },
    {
        "name": "Garden Museum",
        "coordinates": [51.4956, -0.1205],
        "address": "Lambeth Palace Road, London SE1 7LB",
        "category": "Museum",
        "entryPrice": 12,
        "openHours": [
            [10.5, 17],
            [10.5, 17],
            [10.5, 17],
            [10.5, 17],
            [10.5, 17],
            [10.5, 17],
            [10.5, 17]
        ]
    },
    {
        "name": "Guildhall Art Gallery",
        "coordinates": [51.5158, -0.0924],
        "address": "Guildhall Yard, London EC2V 5AE",
        "category": "Gallery",
        "entryPrice": 0,
        "openHours": [
            [12, 16],
            [10, 17],
            [10, 17],
            [10, 17],
            [10, 17],
            [10, 17],
            [10, 17]
        ]
    },
    {
        "name": "Hayward Gallery",
        "coordinates": [51.50622184503297, -0.11531962513132923],
        "address": "Belvedere Road, London SE1 8XX",
        "category": "Gallery",
        "entryPrice": 16,
        "openHours": [
            [11, 19],
            [11, 19],
            [0, 0],
            [11, 19],
            [11, 19],
            [11, 21],
            [11, 21]
        ]
    },
    {
        "name": "Horniman Museum",
        "coordinates": [51.4414, -0.0561],
        "address": "100 London Road, Forest Hill, London SE23 3PQ",
        "category": "Museum",
        "entryPrice": 0,
        "openHours": [
            [10, 17.5],
            [10, 17.5],
            [10, 17.5],
            [10, 17.5],
            [10, 17.5],
            [10, 17.5],
            [10, 17.5]
        ]
    },
    {
        "name": "Kensington Palace",
        "coordinates": [51.5051, -0.1873],
        "address": "Kensington Gardens, London W8 4PX",
        "category": "Museum",
        "entryPrice": 27,
        "openHours": [
            [10, 18],
            [10, 18],
            [10, 18],
            [10, 18],
            [10, 18],
            [10, 18],
            [10, 18]
        ]
    },
    {
        "name": "Kew Gardens",
        "coordinates": [51.4787, -0.2957],
        "address": "Royal Botanic Gardens, Kew, Richmond TW9 3AE",
        "category": "Gardens",
        "entryPrice": 22,
        "openHours": [
            [10, 19],
            [10, 19],
            [10, 19],
            [10, 19],
            [10, 19],
            [10, 19],
            [10, 19]
        ]
    },
    {
        "name": "Leighton House Museum",
        "coordinates": [51.4983, -0.2035],
        "address": "12 Holland Park Road, London W14 8LZ",
        "category": "Museum",
        "entryPrice": 10,
        "openHours": [
            [10, 17.5],
            [10, 17.5],
            [0, 0],
            [10, 17.5],
            [10, 17.5],
            [10, 17.5],
            [10, 17.5]
        ]
    },
    {
        "name": "London Museum Docklands",
        "coordinates": [51.50754062770585, -0.023812848440276604],
        "address": "West India Quay, Canary Wharf, London E14 4AL",
        "category": "Museum",
        "entryPrice": 0,
        "openHours": [
            [10, 18],
            [10, 18],
            [10, 18],
            [10, 18],
            [10, 18],
            [10, 18],
            [10, 18]
        ]
    },
    {
        "name": "Museum of the Home",
        "coordinates": [51.5296, -0.0763],
        "address": "136 Kingsland Road, London E2 8EA",
        "category": "Museum",
        "entryPrice": 0,
        "openHours": [
            [10, 17],
            [0, 0],
            [0, 0],
            [10, 17],
            [10, 17],
            [10, 17],
            [10, 17]
        ]
    },
    {
        "name": "National Army Museum",
        "coordinates": [51.4871, -0.1616],
        "address": "Royal Hospital Road, Chelsea, London SW3 4HT",
        "category": "Museum",
        "entryPrice": 0,
        "openHours": [
            [10, 17.5],
            [10, 17.5],
            [10, 17.5],
            [10, 17.5],
            [10, 17.5],
            [10, 17.5],
            [10, 17.5]
        ]
    },
    {
        "name": "National Maritime Museum",
        "coordinates": [51.4818, -0.0047],
        "address": "Romney Road, Greenwich, London SE10 9NF",
        "category": "Museum",
        "entryPrice": 0,
        "openHours": [
            [10, 17],
            [10, 17],
            [10, 17],
            [10, 17],
            [10, 17],
            [10, 17],
            [10, 17]
        ]
    },
    {
        "name": "Petrie Museum",
        "coordinates": [51.5232, -0.1321],
        "address": "Malet Place, London WC1E 6BT",
        "category": "Museum",
        "entryPrice": 0,
        "openHours": [
            [0, 0],
            [0, 0],
            [11, 17],
            [11, 17],
            [11, 17],
            [11, 17],
            [11, 17]
        ]
    },
    {
        "name": "RAF Museum",
        "coordinates": [51.5986, -0.2286],
        "address": "Grahame Park Way, London NW9 5LL",
        "category": "Museum",
        "entryPrice": 0,
        "openHours": [
            [10, 17],
            [10, 17],
            [10, 17],
            [10, 17],
            [10, 17],
            [10, 17],
            [10, 17]
        ]
    },
    {
        "name": "Sir John Soane's Museum",
        "coordinates": [51.5167, -0.1199],
        "address": "13 Lincoln's Inn Fields, London WC2A 3BP",
        "category": "Museum",
        "entryPrice": 0,
        "openHours": [
            [10, 17],
            [0, 0],
            [0, 0],
            [10, 17],
            [10, 17],
            [10, 17],
            [10, 17]
        ]
    },
    {
        "name": "Somerset House",
        "coordinates": [51.5113, -0.1167],
        "address": "Strand, London WC2R 1LA",
        "category": "Arts Centre",
        "entryPrice": 0,
        "openHours": [
            [10, 18],
            [10, 18],
            [10, 18],
            [10, 18],
            [10, 18],
            [10, 18],
            [10, 18]
        ]
    },
    {
        "name": "The Photographer's Gallery",
        "coordinates": [51.5136, -0.1390],
        "address": "16-18 Ramillies Street, London W1F 7LW",
        "category": "Gallery",
        "entryPrice": 5,
        "openHours": [
            [11, 18],
            [10, 18],
            [10, 18],
            [10, 18],
            [10, 20],
            [10, 18],
            [10, 18]
        ]
    },
    {
        "name": "Two Temple Place",
        "coordinates": [51.5107, -0.1135],
        "address": "2 Temple Place, London WC2R 3BD",
        "category": "Gallery",
        "entryPrice": 0,
        "openHours": [
            [11, 16.5],
            [10, 16.5],
            [10, 16.5],
            [10, 16.5],
            [10, 16.5],
            [10, 16.5],
            [10, 16.5]
        ]
    },
    {
        "name": "V&A East Museum",
        "coordinates": [51.5417, -0.0138],
        "address": "14 Victory Park Road, London E20 1GJ",
        "category": "Museum",
        "entryPrice": 0,
        "openHours": [
            [10, 18],
            [10, 18],
            [10, 18],
            [10, 18],
            [10, 18],
            [10, 18],
            [10, 18]
        ]
    },
    {
        "name": "V&A South Kensington",
        "coordinates": [51.4966, -0.1722],
        "address": "Cromwell Road, London SW7 2RL",
        "category": "Museum",
        "entryPrice": 0,
        "openHours": [
            [10, 17.75],
            [10, 17.75],
            [10, 17.75],
            [10, 17.75],
            [10, 17.75],
            [10, 22],
            [10, 17.75]
        ]
    },
    {
        "name": "Wellcome Collection",
        "coordinates": [51.5257, -0.1332],
        "address": "183 Euston Road, London NW1 2BE",
        "category": "Museum",
        "entryPrice": 0,
        "openHours": [
            [11, 18],
            [0, 0],
            [10, 18],
            [10, 18],
            [10, 21],
            [10, 18],
            [10, 18]
        ]
    },
    {
        "name": "William Morris Gallery",
        "coordinates": [51.59120351828314, -0.02051889733014103],
        "address": "Lloyd Park, Forest Road, Walthamstow, London E17 4PP",
        "category": "Museum",
        "entryPrice": 0,
        "openHours": [
            [10, 17],
            [0, 0],
            [10, 17],
            [10, 17],
            [10, 17],
            [10, 17],
            [10, 17]
        ]
    },
    {
        "name": "Young V&A",
        "coordinates": [51.5286, -0.0529],
        "address": "Cambridge Heath Road, London E2 9PA",
        "category": "Museum",
        "entryPrice": 0,
        "openHours": [
            [10, 17.75],
            [10, 17.75],
            [10, 17.75],
            [10, 17.75],
            [10, 17.75],
            [10, 17.75],
            [10, 17.75]
        ]
    }
]